[
{"State":"Johor","City":"Batu Pahat","Cases":"3","Lat":"1.8548","Lng":"102.9325"},
{"State":"Johor","City":"Johor Bahru","Cases":"41","Lat":"1.4927","Lng":"103.7414"},
{"State":"Johor","City":"Kluang","Cases":"1","Lat":"2.0301","Lng":"103.3185"},
{"State":"Johor","City":"Kota Tinggi","Cases":"1","Lat":"1.7294","Lng":"103.8992"},
{"State":"Johor","City":"Kulai","Cases":"4","Lat":"1.663","Lng":"103.5999"},
{"State":"Johor","City":"Mersing","Cases":"0","Lat":"2.4309","Lng":"103.8361"},
{"State":"Johor","City":"Muar","Cases":"2","Lat":"2.0631","Lng":"102.5849"},
{"State":"Johor","City":"Pontian","Cases":"0","Lat":"1.479","Lng":"103.3898"},
{"State":"Johor","City":"Segamat","Cases":"1","Lat":"2.5035","Lng":"102.8208"},
{"State":"Johor","City":"Tangkak","Cases":"0","Lat":"2.2711","Lng":"102.542"},
{"State":"Selangor","City":"Hulu Langat","Cases":"48","Lat":"","Lng":""},
{"State":"Selangor","City":"Petaling Jaya","Cases":"75","Lat":"","Lng":""},
{"State":"Selangor","City":"Gombak","Cases":"35","Lat":"","Lng":""},
{"State":"Selangor","City":"Klang","Cases":"74","Lat":"","Lng":""},
{"State":"Selangor","City":"Sepang","Cases":"16","Lat":"","Lng":""},
{"State":"Kuala Lumpur","City":"Kuala Lumpur","Cases":"26","Lat":"","Lng":""},
{"State":"Kedah","City":"Alor Setar","Cases":"1235","Lat":"","Lng":""},
{"State":"Kedah","City":"Sungai Petani","Cases":"7","Lat":"","Lng":""},
{"State":"Kedah","City":"Jitra","Cases":"36","Lat":"","Lng":""},
{"State":"Kedah","City":"Kulim","Cases":"6","Lat":"","Lng":""},
{"State":"Kedah","City":"Baling","Cases":"15","Lat":"","Lng":""},
{"State":"Kedah","City":"Langkawi","Cases":"4","Lat":"","Lng":""},
{"State":"Sabah","City":"Tawau","Cases":"301","Lat":"","Lng":""},
{"State":"Sabah","City":"Semporna","Cases":"512","Lat":"","Lng":""},
{"State":"Sabah","City":"Kota Kinabalu","Cases":"422","Lat":"","Lng":""},
{"State":"Sabah","City":"Lahad Datu","Cases":"158","Lat":"","Lng":""},
{"State":"Sabah","City":"Sandakan","Cases":"241","Lat":"","Lng":""},
{"State":"Sabah","City":"Tuaran","Cases":"185","Lat":"","Lng":""},
{"State":"Sabah","City":"Kunak","Cases":"114","Lat":"","Lng":""},
{"State":"Sabah","City":"Papar","Cases":"104","Lat":"","Lng":""},
{"State":"Sabah","City":"Kota Belud","Cases":"43","Lat":"","Lng":""},
{"State":"Sabah","City":"Kinabatangan","Cases":"12","Lat":"","Lng":""},
{"State":"Sabah","City":"Beaufort","Cases":"10","Lat":"","Lng":""},
{"State":"Sabah","City":"Ranau","Cases":"22","Lat":"","Lng":""},
{"State":"Sabah","City":"Kuala Penyu","Cases":"7","Lat":"","Lng":""},
{"State":"Kelantan","City":"Kota Bharu","Cases":"3","Lat":"","Lng":""},
{"State":"Pahang","City":"Kuantan","Cases":"3","Lat":"","Lng":""},
{"State":"Pahang","City":"Jerantut","Cases":"3","Lat":"","Lng":""},
{"State":"Pahang","City":"Raub","Cases":"1","Lat":"","Lng":""},
{"State":"Terengganu","City":"Besut","Cases":"12","Lat":"","Lng":""},
{"State":"Terengganu","City":"Dungun","Cases":"7","Lat":"","Lng":""},
{"State":"Terengganu","City":"Kuala Terengganu","Cases":"7","Lat":"","Lng":""}
]